[
	{
		"name": "Pharmacies",
		"services": [
			{
				"name": "Farmacia Durante della Dott.ssa Franco Marcella",
				"address": "Via Appia, 1092, 04026 Minturno LT",
				"openingHours": "8:30-20",
				"image": "/assets/images/st1-farmaciaDurante.jpg",
				"imageAlt": "Ingresso della farmacia Durante."
			},
			{
				"name": "Farmacia Schiavone",
				"address": "Via Cadorna, 52, 04026 Minturno LT",
				"openingHours": "8:30-20",
				"image": "/assets/images/st2-farmaciaSchiavone.jpg",
				"imageAlt": "Ingresso della farmacia Schiavone."
			},
			{
				"name": "Farmacia del Golfo",
				"address": "Via Appia, 6, 04028 Minturno LT",
				"openingHours": "08:30-13,16:30-20",
				"image": "/assets/images/st3-farmaciaDelGolfo.jpg",
				"imageAlt": "Ingresso della farmacia del Golfo."
			}
		]
	},
	{
		"name": "Banks",
		"services": [
			{
				"name": "Unicredit",
				"address": "Via Appia, 344, 04028 Minturno LT",
				"openingHours": "08:20-12:45,14:35-16:35",
				"image": "/assets/images/st4-bancaUnicredit.jpg",
				"imageAlt": "Ingresso della banca Unicredit."
			},
			{
				"name": "Banca dei Monti dei Paschi di Siena",
				"address": "Via Appia, 1074/1076, 04028 Minturno LT",
				"openingHours": "08:20-12:45,14:35-16:35",
				"image": "/assets/images/st5-bancaMonteDeiPaschi.jpg",
				"imageAlt": "Ingresso della banca Monte dei Paschi."
			},
			{
				"name": "Banca Intesa San Paolo",
				"address": "Via Appia, 1687 C/O Centro Commerciale, 04020 Minturno LT",
				"openingHours": "08:30-13:30,14:45-16:55",
				"image": "/assets/images/st6-bancaIntesaSanPaolo.jpg",
				"imageAlt": "Ingresso della banca IntesaSanPaolo."
			}
		]
	},
	{
		"name": "Gas stations",
		"services": [
			{
				"name": "TotalErg",
				"address": "Via Cavallerizza, 5, 04026 Minturno LT",
				"openingHours": "Orario continuato",
				"image": "/assets/images/st7-benzinaioTotalErg.jpg",
				"imageAlt": "pompe di benzina Total Erg."
			},
			{
				"name": "Redi Service",
				"address": "Km. 152.800 Via Appia, Minturno, LT 04026, 04026 Minturno LT",
				"openingHours": "Orario continuato",
				"image": "/assets/images/st8-benzinaioRediService.jpg",
				"imageAlt": "pompe di benzina Redi Service."
			},
			{
				"name": "Eni Station",
				"address": "Via Appia Nuova N. 320 - Loc.scauri, 04028 Minturno LT",
				"openingHours": "Orario continuato",
				"image": "/assets/images/st9-benzinaioEniStation.jpg",
				"imageAlt": "pompe di benzina Eni Station."
			}
		]
	},
	{
		"name": "Grocery stores",
		"services": [
			{
				"name": "Il pizzicagnolo",
				"address": "Via Appia, 04026 Minturno LT",
				"openingHours": "07:15-20:30",
				"image": "/assets/images/st10-alimentariIlPizzicagnolo.jpg",
				"imageAlt": "scaffali del negozio Il pizzicagnolo."
			},
			{
				"name": "Alimentari Alicandro",
				"address": "Via Miano, 04026 Minturno LT",
				"openingHours": "07:15-20:30",
				"image": "/assets/images/st11-alimentariAlimentariAlicandro.jpg",
				"imageAlt": "esterno del negozio Alimentari Alicandro."
			},
			{
				"name": "Despar",
				"address": "Via Filippo Signore, 7, 04026 Minturno LT",
				"openingHours": "08:30-13:30,16-20",
				"image": "/assets/images/st12-alimentariDespar.jpg",
				"imageAlt": "insegna del negozio Despar."
			}
		]
	},
	{
		"name": "Shores",
		"services": [
			{
				"name": "Lido La Siesta Sas",
				"address": "Via Lungomare, 53, 04026 Marina di Minturno LT",
				"openingHours": "08-21",
				"image": "/assets/images/st13-lidoLaSiestaSas.jpg",
				"imageAlt": "spiaggia del Lido La Siesta Sas."
			},
			{
				"name": "Lido Il vascello",
				"address": "Lungomare Nazario Sauro, 44, 04028 Minturno LT",
				"openingHours": "08:30-01",
				"image": "/assets/images/st14-lidoIlVascello.jpg",
				"imageAlt": "ombrelloni del lido Il Vascello."
			},
			{
				"name": "Marina Beach",
				"address": "Via Bettino Craxi, 13, 04026 Minturno LT",
				"openingHours": "08-21",
				"image": "/assets/images/st15-lidoMarinaBeach.jpg",
				"imageAlt": "ombrelloni del lido Marina Beach."
			}
		]
	}
]
